City_ID,City,Lat,Lng,Max Temp,Humidity,Cloudiness,Wind Speed,Country,Current Description,Rain Inches (last 3 hrs),Snow Inches (last 3 hrs),Date
0,Thompson,55.74,-97.86,14.0,66,90,5.82,CA,overcast clouds,0.0,0.0,2020-02-23 18:40:10
1,Busselton,-33.65,115.33,68.0,44,93,15.14,AU,light rain,0.69,0.0,2020-02-23 18:40:44
2,Rio Grande,-32.03,-52.1,78.8,47,20,17.22,BR,few clouds,0.0,0.0,2020-02-23 18:49:01
3,Rikitea,-23.12,-134.97,78.37,74,2,8.25,PF,light rain,0.44,0.0,2020-02-23 18:40:23
4,Mataura,-46.19,168.86,51.01,92,93,3.0,NZ,overcast clouds,0.0,0.0,2020-02-23 18:40:31
5,Punta Arenas,-53.15,-70.92,57.2,58,75,28.86,CL,light intensity shower rain,0.0,0.0,2020-02-23 18:40:24
6,Hammerfest,70.66,23.68,30.2,100,75,9.17,NO,light snow,0.0,0.0,2020-02-23 18:49:02
7,Southbridge,42.08,-72.03,54.0,27,20,11.41,US,few clouds,0.0,0.0,2020-02-23 18:49:03
8,Fare,-16.7,-151.02,82.72,70,47,10.8,PF,scattered clouds,0.0,0.0,2020-02-23 18:49:03
9,Itoman,26.12,127.67,62.6,77,20,1.12,JP,few clouds,0.0,0.0,2020-02-23 18:41:20
10,Ixtapa,20.7,-105.2,80.6,69,40,9.17,MX,scattered clouds,0.0,0.0,2020-02-23 18:47:10
11,Ribeira Grande,38.52,-28.7,62.6,67,75,5.82,PT,broken clouds,0.0,0.0,2020-02-23 18:40:28
12,Ullapool,57.9,-5.16,42.01,78,70,1.99,GB,light snow,0.0,0.19,2020-02-23 18:49:04
13,Cayenne,4.93,-52.33,84.2,70,75,14.99,GF,broken clouds,0.0,0.0,2020-02-23 18:41:14
14,Naron,43.52,-8.15,54.0,93,0,2.24,ES,clear sky,0.0,0.0,2020-02-23 18:49:05
15,Hovd,48.01,91.64,17.64,66,100,1.9,MN,overcast clouds,0.0,0.0,2020-02-23 18:49:05
16,Kaspiyskiy,45.39,47.37,42.71,66,99,5.5,RU,overcast clouds,0.0,0.0,2020-02-23 18:49:05
17,Kavieng,-2.57,150.8,84.34,72,49,11.52,PG,scattered clouds,0.0,0.0,2020-02-23 18:40:28
18,Wattwil,47.3,9.09,64.4,39,90,18.34,CH,overcast clouds,0.0,0.0,2020-02-23 18:49:06
19,Puerto Ayora,-0.74,-90.35,84.2,74,20,12.75,EC,few clouds,0.0,0.0,2020-02-23 18:41:13
20,Helsingborg,56.05,12.69,39.99,93,83,13.87,SE,light rain,0.63,0.0,2020-02-23 18:49:06
21,Hermanus,-34.42,19.23,73.0,74,0,5.99,ZA,clear sky,0.0,0.0,2020-02-23 18:40:40
22,Castro,-24.79,-50.01,79.45,39,100,1.3,BR,overcast clouds,0.0,0.0,2020-02-23 18:40:33
23,Abeche,13.83,20.83,79.45,10,0,13.6,TD,clear sky,0.0,0.0,2020-02-23 18:49:07
24,Kankon,15.02,74.02,82.4,61,20,3.36,IN,few clouds,0.0,0.0,2020-02-23 18:49:07
25,Atuona,-9.8,-139.03,81.3,78,20,15.3,PF,light rain,0.5,0.0,2020-02-23 18:40:33
26,Vao,-22.67,167.48,77.65,76,83,14.32,NC,broken clouds,0.0,0.0,2020-02-23 18:46:52
27,Khandyga,62.67,135.6,-5.48,98,100,1.99,RU,light snow,0.0,0.19,2020-02-23 18:46:54
28,Porto Santo,33.07,-16.34,68.0,72,20,16.11,PT,few clouds,0.0,0.0,2020-02-23 18:49:08
29,Bredasdorp,-34.53,20.04,66.2,59,0,12.75,ZA,clear sky,0.0,0.0,2020-02-23 18:40:24
30,Port Elizabeth,-33.92,25.57,62.6,72,8,3.36,ZA,clear sky,0.0,0.0,2020-02-23 18:40:43
31,Isangel,-19.55,169.27,69.8,94,20,13.98,VU,few clouds,0.0,0.0,2020-02-23 18:37:22
32,Tunceli,39.11,39.55,41.0,93,40,5.82,TR,scattered clouds,0.0,0.0,2020-02-23 18:49:09
33,Sebring,27.5,-81.44,77.0,46,75,4.7,US,broken clouds,0.0,0.0,2020-02-23 18:49:09
34,Cape Town,-33.93,18.42,73.0,49,0,21.92,ZA,clear sky,0.0,0.0,2020-02-23 18:36:42
35,Broken Hill,-31.95,141.43,69.8,64,18,16.11,AU,few clouds,0.0,0.0,2020-02-23 18:49:09
36,Albany,42.6,-73.97,51.01,29,75,4.7,US,broken clouds,0.0,0.0,2020-02-23 18:40:24
37,Hofn,64.25,-15.21,37.11,56,30,24.49,IS,scattered clouds,0.0,0.0,2020-02-23 18:40:48
38,Bambous Virieux,-20.34,57.76,77.0,88,75,4.7,MU,broken clouds,0.0,0.0,2020-02-23 18:36:46
39,Teguise,29.06,-13.56,73.4,53,58,21.92,ES,haze,0.0,0.0,2020-02-23 18:41:47
40,Asau,46.43,26.4,46.4,61,100,10.29,RO,overcast clouds,0.0,0.0,2020-02-23 18:40:49
41,Ulladulla,-35.35,150.47,66.2,77,92,5.82,AU,overcast clouds,0.0,0.0,2020-02-23 18:49:11
42,Atambua,-9.11,124.89,75.07,86,44,2.13,ID,scattered clouds,0.0,0.0,2020-02-23 18:49:05
43,Boguchany,58.38,97.45,10.22,96,38,3.06,RU,scattered clouds,0.0,0.0,2020-02-23 18:48:16
44,Barrow,71.29,-156.79,-29.2,81,20,10.29,US,few clouds,0.0,0.0,2020-02-23 18:40:34
45,Chokurdakh,70.63,147.92,-22.4,99,96,3.74,RU,overcast clouds,0.0,0.0,2020-02-23 18:41:05
46,Port Blair,11.67,92.75,81.14,75,41,12.1,IN,scattered clouds,0.0,0.0,2020-02-23 18:49:12
47,Lebu,-37.62,-73.65,69.19,57,2,9.35,CL,clear sky,0.0,0.0,2020-02-23 18:40:46
48,Weligama,5.97,80.42,75.51,87,94,10.89,LK,overcast clouds,0.0,0.0,2020-02-23 18:49:12
49,Avarua,-21.21,-159.78,80.6,94,100,5.82,CK,moderate rain,0.0,0.0,2020-02-23 18:41:04
50,Salekhard,66.53,66.6,27.79,85,79,20.11,RU,broken clouds,0.0,0.0,2020-02-23 18:49:13
51,Tasiilaq,65.61,-37.64,10.4,72,96,2.24,GL,overcast clouds,0.0,0.0,2020-02-23 18:40:50
52,Saint-Philippe,-21.36,55.77,77.0,78,0,3.36,RE,clear sky,0.0,0.0,2020-02-23 18:40:35
53,Tigre,-34.43,-58.58,82.0,47,40,9.17,AR,scattered clouds,0.0,0.0,2020-02-23 18:49:13
54,Jalu,29.03,21.55,57.83,39,49,10.11,LY,scattered clouds,0.0,0.0,2020-02-23 18:41:33
55,Tual,-5.67,132.75,82.9,79,82,11.81,ID,light rain,0.81,0.0,2020-02-23 18:49:14
56,Marzuq,14.4,46.47,65.08,56,0,5.95,YE,clear sky,0.0,0.0,2020-02-23 18:49:14
57,Esna,25.29,32.55,60.89,29,100,9.28,EG,overcast clouds,0.0,0.0,2020-02-23 18:49:14
58,Itarema,-2.92,-39.92,85.75,69,85,4.65,BR,light rain,0.31,0.0,2020-02-23 18:41:22
59,Carnarvon,-24.87,113.63,75.2,88,40,8.05,AU,scattered clouds,0.0,0.0,2020-02-23 18:40:49
60,Cooma,-36.23,149.13,53.6,93,60,5.82,AU,broken clouds,0.0,0.0,2020-02-23 18:49:15
61,Kirakira,-10.45,161.92,77.22,88,1,6.15,SB,clear sky,0.0,0.0,2020-02-23 18:49:15
62,Salihorsk,52.79,27.54,36.63,74,20,9.04,BY,few clouds,0.0,0.0,2020-02-23 18:49:16
63,Port Alfred,-33.59,26.89,62.01,81,52,8.03,ZA,broken clouds,0.0,0.0,2020-02-23 18:40:24
64,Lorengau,-2.02,147.27,83.43,71,10,6.78,PG,clear sky,0.0,0.0,2020-02-23 18:40:59
65,Cloppenburg,52.85,8.03,42.01,86,100,10.29,DE,light rain,0.94,0.0,2020-02-23 18:44:38
66,Georgetown,5.41,100.34,80.6,83,40,4.16,MY,scattered clouds,0.0,0.0,2020-02-23 18:41:20
67,Nikolskoye,59.7,30.79,37.4,90,75,8.95,RU,broken clouds,0.0,0.0,2020-02-23 18:40:34
68,Tura,25.52,90.22,68.13,48,0,4.05,IN,clear sky,0.0,0.0,2020-02-23 18:41:09
69,Tuktoyaktuk,69.45,-133.04,-5.8,76,90,13.87,CA,light snow,0.0,0.0,2020-02-23 18:40:23
70,Belokurikha,52.0,84.99,16.03,95,96,2.39,RU,light snow,0.0,0.12,2020-02-23 18:49:17
71,Toyooka,35.53,134.83,32.97,81,0,3.09,JP,clear sky,0.0,0.0,2020-02-23 18:49:17
72,Shingu,33.73,135.98,46.08,65,0,9.15,JP,clear sky,0.0,0.0,2020-02-23 18:49:18
73,Antalaha,-14.9,50.28,82.99,75,98,0.78,MG,overcast clouds,0.0,0.0,2020-02-23 18:49:18
74,Hondo,32.45,130.2,42.01,70,0,3.0,JP,clear sky,0.0,0.0,2020-02-23 18:49:18
75,Boa Vista,2.82,-60.67,95.0,36,75,9.17,BR,broken clouds,0.0,0.0,2020-02-23 18:49:18
76,Atar,20.52,-13.05,92.32,8,100,7.14,MR,overcast clouds,0.0,0.0,2020-02-23 18:45:36
77,Leh,34.17,77.58,-2.96,60,0,3.94,IN,clear sky,0.0,0.0,2020-02-23 18:49:19
78,Tacoronte,28.48,-16.41,73.99,48,1,13.87,ES,haze,0.0,0.0,2020-02-23 18:49:19
79,Bluff,-46.6,168.33,51.01,92,40,3.0,NZ,scattered clouds,0.0,0.0,2020-02-23 18:40:33
80,Ciudad Bolivar,8.12,-63.55,95.22,34,84,7.23,VE,broken clouds,0.0,0.0,2020-02-23 18:49:19
81,Cape Coast,5.11,-1.25,82.54,87,47,17.22,GH,scattered clouds,0.0,0.0,2020-02-23 18:49:19
82,Pangnirtung,66.15,-65.71,-31.0,59,20,4.7,CA,few clouds,0.0,0.0,2020-02-23 18:42:18
83,Codrington,-38.27,141.97,62.11,87,99,14.76,AU,overcast clouds,0.0,0.0,2020-02-23 18:40:57
84,Arandis,-22.42,14.97,64.0,91,0,5.01,NA,clear sky,0.0,0.0,2020-02-23 18:49:20
85,Ushuaia,-54.8,-68.3,51.8,71,75,12.75,AR,shower rain,0.0,0.0,2020-02-23 18:36:37
86,Hvolsvollur,63.75,-20.22,33.8,66,75,34.45,IS,shower rain,0.0,0.0,2020-02-23 18:49:21
87,Kongolo,-5.38,27.0,74.28,92,100,1.97,CD,light rain,1.5,0.0,2020-02-23 18:47:21
88,Bubaque,11.28,-15.83,79.77,68,99,20.58,GW,overcast clouds,0.0,0.0,2020-02-23 18:49:21
89,Kloulklubed,7.04,134.26,78.8,88,75,11.41,PW,broken clouds,0.0,0.0,2020-02-23 18:48:44
90,Butaritari,3.07,172.79,84.7,76,100,17.56,KI,moderate rain,6.37,0.0,2020-02-23 18:40:39
91,Vaini,-21.2,-175.2,77.0,100,75,6.93,TO,broken clouds,0.0,0.0,2020-02-23 18:40:35
92,Ambon,-3.7,128.18,81.36,82,67,13.04,ID,moderate rain,3.25,0.0,2020-02-23 18:43:21
93,Coquimbo,-29.95,-71.34,68.0,64,37,12.75,CL,scattered clouds,0.0,0.0,2020-02-23 18:41:02
94,Porto Velho,-8.76,-63.9,78.8,83,90,2.24,BR,overcast clouds,0.0,0.0,2020-02-23 18:49:22
95,Yellowknife,62.46,-114.35,-8.0,69,40,8.05,CA,scattered clouds,0.0,0.0,2020-02-23 18:40:38
96,Cidreira,-30.18,-50.21,71.91,62,1,12.26,BR,clear sky,0.0,0.0,2020-02-23 18:41:09
97,Souillac,-20.52,57.52,77.0,88,75,4.7,MU,broken clouds,0.0,0.0,2020-02-23 18:42:09
98,Tiksi,71.69,128.87,-9.99,88,100,7.81,RU,overcast clouds,0.0,0.0,2020-02-23 18:41:08
99,Taoudenni,22.68,-3.98,88.32,8,66,16.42,ML,broken clouds,0.0,0.0,2020-02-23 18:41:32
100,Port Lincoln,-34.73,135.87,66.18,78,79,4.99,AU,broken clouds,0.0,0.0,2020-02-23 18:36:16
101,Aklavik,68.22,-135.01,-4.0,76,75,6.93,CA,broken clouds,0.0,0.0,2020-02-23 18:41:39
102,New Norfolk,-42.78,147.06,57.2,76,97,4.7,AU,overcast clouds,0.0,0.0,2020-02-23 18:40:33
103,Broome,42.25,-75.83,48.0,30,1,9.17,US,clear sky,0.0,0.0,2020-02-23 18:41:32
104,Mayo,38.89,-76.51,59.0,40,1,4.7,US,clear sky,0.0,0.0,2020-02-23 18:45:56
105,Santa Maria,-29.68,-53.81,80.6,51,40,11.41,BR,scattered clouds,0.0,0.0,2020-02-23 18:44:46
106,Yabrud,33.97,36.66,46.4,70,40,5.82,SY,scattered clouds,0.0,0.0,2020-02-23 18:49:25
107,Hilo,19.73,-155.09,70.0,64,40,4.7,US,scattered clouds,0.0,0.0,2020-02-23 18:36:35
108,Komsomolskiy,40.43,71.72,50.0,76,90,4.7,UZ,mist,0.0,0.0,2020-02-23 18:41:30
109,Airai,-8.93,125.41,66.96,87,74,4.16,TL,broken clouds,0.0,0.0,2020-02-23 18:41:42
110,Jamestown,42.1,-79.24,46.99,26,1,16.11,US,clear sky,0.0,0.0,2020-02-23 18:38:20
111,Buraydah,26.33,43.98,73.4,38,100,3.36,SA,overcast clouds,0.0,0.0,2020-02-23 18:41:20
112,Razvilnoye,46.24,41.3,40.08,78,100,8.57,RU,overcast clouds,0.0,0.0,2020-02-23 18:49:26
113,Formosa,-26.18,-58.18,82.4,39,82,8.05,AR,broken clouds,0.0,0.0,2020-02-23 18:48:05
114,Chapais,49.78,-74.85,35.6,64,1,6.93,CA,clear sky,0.0,0.0,2020-02-23 18:49:08
115,Suntar,62.14,117.63,-7.67,97,66,4.76,RU,broken clouds,0.0,0.0,2020-02-23 18:49:27
116,Ostrovnoy,68.05,39.51,30.78,94,100,17.78,RU,light snow,0.0,0.63,2020-02-23 18:46:48
117,Udayagiri,20.13,84.38,67.01,60,0,2.13,IN,clear sky,0.0,0.0,2020-02-23 18:49:28
118,Kilinochchi,9.4,80.4,78.24,83,93,11.63,LK,overcast clouds,0.0,0.0,2020-02-23 18:49:28
119,Dikson,73.51,80.55,30.27,95,100,27.36,RU,snow,0.0,1.75,2020-02-23 18:40:29
120,Kaitangata,-46.28,169.85,57.99,83,99,1.01,NZ,overcast clouds,0.0,0.0,2020-02-23 18:41:07
121,Alihe,50.57,123.72,7.83,91,91,4.5,CN,overcast clouds,0.0,0.0,2020-02-23 18:49:28
122,Upernavik,72.79,-56.15,-16.91,80,0,6.64,GL,clear sky,0.0,0.0,2020-02-23 18:41:06
123,Morki,56.43,48.99,28.0,94,100,16.89,RU,light snow,0.0,1.38,2020-02-23 18:49:29
124,Namatanai,-3.67,152.43,83.73,73,55,10.02,PG,broken clouds,0.0,0.0,2020-02-23 18:49:29
125,Qaanaaq,77.48,-69.36,-19.57,78,24,5.01,GL,few clouds,0.0,0.0,2020-02-23 18:40:36
126,Pangkalanbuun,-2.68,111.62,75.56,92,4,2.68,ID,clear sky,0.0,0.0,2020-02-23 18:49:29
127,North Bend,43.41,-124.22,48.99,100,90,10.29,US,light rain,0.0,0.0,2020-02-23 18:49:30
128,Fort Nelson,58.81,-122.7,15.8,61,20,1.63,CA,few clouds,0.0,0.0,2020-02-23 18:49:30
129,Inuvik,68.35,-133.72,-4.0,76,75,5.82,CA,light snow,0.0,0.0,2020-02-23 18:49:30
130,Abhar,36.15,49.22,33.78,83,48,2.51,IR,scattered clouds,0.0,0.0,2020-02-23 18:49:30
131,Ponta Do Sol,32.67,-17.1,70.0,52,20,18.34,PT,few clouds,0.0,0.0,2020-02-23 18:40:43
132,Luderitz,-26.65,15.16,68.49,71,0,27.65,NA,clear sky,0.0,0.0,2020-02-23 18:42:03
133,Rovaniemi,66.5,25.72,23.0,92,57,6.93,FI,broken clouds,0.0,0.0,2020-02-23 18:49:31
134,Ahipara,-35.17,173.17,57.0,100,0,1.01,NZ,clear sky,0.0,0.0,2020-02-23 18:46:54
135,Naze,28.37,129.48,51.8,81,0,4.7,JP,clear sky,0.0,0.0,2020-02-23 18:40:58
136,Kargil,34.57,76.1,-6.43,90,0,3.91,IN,clear sky,0.0,0.0,2020-02-23 18:49:32
137,Hithadhoo,-0.6,73.08,83.26,78,100,14.05,MV,light rain,2.13,0.0,2020-02-23 18:40:27
138,Dalvik,65.97,-18.53,24.42,75,67,18.03,IS,light snow,0.0,0.12,2020-02-23 18:49:32
139,Issaquah,47.53,-122.03,48.0,75,75,12.75,US,light rain,0.0,0.0,2020-02-23 18:48:33
140,Torbay,47.67,-52.73,37.0,69,20,24.16,CA,few clouds,0.0,0.0,2020-02-23 18:40:38
141,Chuy,-33.7,-53.46,71.78,59,66,4.61,UY,broken clouds,0.0,0.0,2020-02-23 18:41:35
142,Alofi,-19.06,-169.92,80.6,88,100,5.82,NU,light rain,2.94,0.0,2020-02-23 18:49:33
143,Ayr,55.46,-4.63,42.8,87,40,13.87,GB,scattered clouds,0.0,0.0,2020-02-23 18:49:33
144,Port Shepstone,-30.74,30.45,62.24,84,76,7.38,ZA,light rain,0.44,0.0,2020-02-23 18:49:11
145,Nouadhibou,20.93,-17.03,64.4,82,100,13.87,MR,overcast clouds,0.0,0.0,2020-02-23 18:46:29
146,Lasa,46.62,10.7,50.0,61,40,5.82,IT,scattered clouds,0.0,0.0,2020-02-23 18:41:57
147,Mehamn,71.04,27.85,33.8,92,75,8.05,NO,broken clouds,0.0,0.0,2020-02-23 18:46:53
148,Bethel,41.37,-73.41,54.0,29,1,10.29,US,clear sky,0.0,0.0,2020-02-23 18:41:03
149,Katsuura,35.13,140.3,44.6,39,20,10.29,JP,few clouds,0.0,0.0,2020-02-23 18:41:19
150,Fortuna,40.6,-124.16,53.01,76,75,3.24,US,broken clouds,0.0,0.0,2020-02-23 18:40:26
151,Saint George,37.1,-113.58,50.0,61,61,10.29,US,broken clouds,0.0,0.0,2020-02-23 18:40:51
152,Terney,45.05,136.61,13.3,80,100,6.58,RU,overcast clouds,0.0,0.0,2020-02-23 18:49:35
153,San Cristobal,7.77,-72.22,80.6,65,75,2.24,VE,broken clouds,0.0,0.0,2020-02-23 18:49:35
154,Jacareacanga,-6.22,-57.75,75.96,95,100,2.33,BR,light rain,0.44,0.0,2020-02-23 18:45:50
155,Flinders,-34.58,150.86,66.99,77,90,5.82,AU,overcast clouds,0.0,0.0,2020-02-23 18:47:15
156,Udalguri,26.77,92.13,50.13,57,0,8.08,IN,light rain,0.19,0.0,2020-02-23 18:49:36
157,Viedma,-40.81,-63.0,89.35,21,0,20.98,AR,clear sky,0.0,0.0,2020-02-23 18:45:37
158,Yamoussoukro,6.82,-5.28,98.6,35,20,1.19,CI,few clouds,0.0,0.0,2020-02-23 18:46:38
159,Lyngseidet,69.58,20.22,32.0,79,75,2.24,NO,broken clouds,0.0,0.0,2020-02-23 18:46:19
160,Sayyan,15.17,44.32,56.19,21,0,3.71,YE,clear sky,0.0,0.0,2020-02-23 18:49:37
161,Kaliganj,23.41,89.14,70.36,51,0,6.62,BD,clear sky,0.0,0.0,2020-02-23 18:49:37
162,Mohgaon,21.65,78.72,78.93,32,54,1.77,IN,broken clouds,0.0,0.0,2020-02-23 18:49:37
163,Alice Springs,-23.7,133.88,71.6,30,25,6.93,AU,scattered clouds,0.0,0.0,2020-02-23 18:44:02
164,Asyut,27.18,31.18,56.17,41,100,8.72,EG,overcast clouds,0.0,0.0,2020-02-23 18:42:48
165,Sackville,45.92,-64.38,42.01,48,20,12.75,CA,few clouds,0.0,0.0,2020-02-23 18:49:38
166,Rocky Mountain House,52.37,-114.92,23.47,85,98,6.13,CA,overcast clouds,0.0,0.0,2020-02-23 18:49:31
167,Najran,17.49,44.13,78.8,26,35,2.24,SA,scattered clouds,0.0,0.0,2020-02-23 18:40:40
168,Faya,18.39,42.45,66.2,39,72,6.93,SA,broken clouds,0.0,0.0,2020-02-23 18:40:39
169,Tuatapere,-46.13,167.68,51.01,92,29,3.0,NZ,scattered clouds,0.0,0.0,2020-02-23 18:41:22
170,Chernyshevskiy,63.01,112.47,-4.72,97,33,4.72,RU,scattered clouds,0.0,0.0,2020-02-23 18:49:39
171,Kozienice,51.58,21.55,44.01,97,100,6.91,PL,moderate rain,3.5,0.0,2020-02-23 18:49:39
172,Hobart,-42.88,147.33,57.2,76,99,4.7,AU,overcast clouds,0.0,0.0,2020-02-23 18:35:54
173,Hamilton,39.18,-84.53,51.01,39,90,9.17,US,overcast clouds,0.0,0.0,2020-02-23 18:39:11
174,Ancud,-41.87,-73.82,59.0,72,75,9.17,CL,broken clouds,0.0,0.0,2020-02-23 18:41:01
175,Bengkulu,-3.8,102.27,74.64,90,15,4.23,ID,few clouds,0.0,0.0,2020-02-23 18:40:25
176,Ovalle,-30.6,-71.2,82.6,23,0,11.81,CL,clear sky,0.0,0.0,2020-02-23 18:49:40
177,Todos Santos,23.45,-110.22,84.0,28,75,6.93,MX,broken clouds,0.0,0.0,2020-02-23 18:49:41
178,Kapaa,22.08,-159.32,69.8,82,1,9.17,US,clear sky,0.0,0.0,2020-02-23 18:40:30
179,Nanhai,30.13,111.78,57.0,80,78,9.51,CN,broken clouds,0.0,0.0,2020-02-23 18:49:41
180,Luxor,25.7,32.64,60.89,29,100,9.28,EG,overcast clouds,0.0,0.0,2020-02-23 18:49:41
181,Vallenar,-28.57,-70.76,74.7,46,0,13.47,CL,clear sky,0.0,0.0,2020-02-23 18:45:25
182,Miri,4.41,114.01,77.0,94,75,6.93,MY,broken clouds,0.0,0.0,2020-02-23 18:49:42
183,Mayumba,-3.43,10.66,81.84,83,12,11.63,GA,light rain,1.75,0.0,2020-02-23 18:46:18
184,Avera,33.19,-82.53,63.0,26,1,5.82,US,clear sky,0.0,0.0,2020-02-23 18:49:42
185,Lokomotivnyy,53.01,60.57,13.55,96,45,7.38,RU,scattered clouds,0.0,0.0,2020-02-23 18:49:43
186,Matara,5.95,80.54,75.51,87,94,10.89,LK,overcast clouds,0.0,0.0,2020-02-23 18:47:07
187,Thessalon,46.25,-83.57,42.8,60,1,6.93,CA,clear sky,0.0,0.0,2020-02-23 18:49:43
188,Fort Saint James,54.43,-124.25,19.87,93,100,3.33,CA,overcast clouds,0.0,0.0,2020-02-23 18:49:44
189,Pisco,-13.7,-76.22,71.6,30,40,10.29,PE,scattered clouds,0.0,0.0,2020-02-23 18:49:44
190,Gwadar,25.12,62.33,73.04,76,0,10.69,PK,clear sky,0.0,0.0,2020-02-23 18:44:07
191,La Ronge,55.1,-105.28,28.4,58,20,8.05,CA,few clouds,0.0,0.0,2020-02-23 18:41:36
192,Deputatskiy,69.3,139.9,-21.32,96,31,3.2,RU,scattered clouds,0.0,0.0,2020-02-23 18:49:45
193,Bac Lieu,9.29,105.72,74.79,68,2,11.79,VN,clear sky,0.0,0.0,2020-02-23 18:49:45
194,Williston,48.15,-103.62,37.4,47,1,11.41,US,clear sky,0.0,0.0,2020-02-23 18:47:32
195,Puerto Escondido,15.85,-97.07,86.0,84,5,6.93,MX,clear sky,0.0,0.0,2020-02-23 18:46:06
196,Butembo,0.15,29.28,69.13,73,76,4.05,CD,light rain,0.56,0.0,2020-02-23 18:49:45
197,Kodiak,57.79,-152.41,19.4,37,1,28.86,US,clear sky,0.0,0.0,2020-02-23 18:41:08
198,Rizhao,35.43,119.46,41.45,87,15,4.94,CN,few clouds,0.0,0.0,2020-02-23 18:49:46
199,Longyearbyen,78.22,15.64,-2.2,64,20,9.17,SJ,few clouds,0.0,0.0,2020-02-23 18:40:29
200,Biak,-0.91,122.88,82.85,73,40,11.5,ID,scattered clouds,0.0,0.0,2020-02-23 18:49:46
201,Sistranda,63.73,8.83,35.6,80,75,18.34,NO,shower rain,0.0,0.0,2020-02-23 18:49:47
202,Iqaluit,63.75,-68.51,-23.01,61,20,12.75,CA,few clouds,0.0,0.0,2020-02-23 18:40:41
203,Mocuba,-16.84,36.99,76.39,96,87,4.05,MZ,light rain,1.75,0.0,2020-02-23 18:46:17
204,Cherskiy,68.75,161.3,-25.89,91,71,6.55,RU,broken clouds,0.0,0.0,2020-02-23 18:41:53
205,Lokosovo,61.13,74.82,20.8,93,100,9.82,RU,overcast clouds,0.0,0.0,2020-02-23 18:49:48
206,Pauini,-7.71,-66.98,85.86,64,96,1.7,BR,overcast clouds,0.0,0.0,2020-02-23 18:49:48
207,Fairbanks,64.84,-147.72,-7.01,83,20,2.17,US,few clouds,0.0,0.0,2020-02-23 18:39:17
208,Walvis Bay,-22.96,14.51,64.4,82,30,6.93,NA,scattered clouds,0.0,0.0,2020-02-23 18:48:48
209,Egvekinot,66.32,-179.17,-31.85,92,1,2.21,RU,clear sky,0.0,0.0,2020-02-23 18:41:52
210,Ormara,25.21,64.64,73.71,66,0,10.2,PK,clear sky,0.0,0.0,2020-02-23 18:49:49
211,Odweyne,9.41,45.06,74.1,30,28,13.4,SO,scattered clouds,0.0,0.0,2020-02-23 18:49:49
212,Port Hedland,-20.32,118.57,80.6,83,81,9.17,AU,broken clouds,0.0,0.0,2020-02-23 18:45:22
213,Te Anau,-45.42,167.72,47.43,83,38,4.32,NZ,scattered clouds,0.0,0.0,2020-02-23 18:39:34
214,Mugumu,-1.85,34.7,68.95,88,96,3.8,TZ,light rain,2.06,0.0,2020-02-23 18:49:50
215,Cocobeach,1.0,9.58,84.2,83,20,6.93,GA,few clouds,0.0,0.0,2020-02-23 18:49:50
216,Moron,-34.65,-58.62,82.0,47,75,5.82,AR,broken clouds,0.0,0.0,2020-02-23 18:49:51
217,Sao Filipe,14.9,-24.5,68.52,83,100,18.84,CV,overcast clouds,0.0,0.0,2020-02-23 18:41:08
218,Mount Gambier,-37.83,140.77,57.2,93,96,9.17,AU,overcast clouds,0.0,0.0,2020-02-23 18:41:35
219,Constitucion,-35.33,-72.42,64.58,70,26,6.02,CL,scattered clouds,0.0,0.0,2020-02-23 18:49:51
220,Chengde,40.97,117.94,30.83,45,67,2.33,CN,broken clouds,0.0,0.0,2020-02-23 18:49:51
221,Paralimni,35.04,33.98,55.4,76,18,5.82,CY,few clouds,0.0,0.0,2020-02-23 18:48:56
222,Lucea,18.45,-78.17,84.0,69,75,18.34,JM,broken clouds,0.0,0.0,2020-02-23 18:49:52
223,Salalah,17.02,54.09,77.0,73,0,3.36,OM,clear sky,0.0,0.0,2020-02-23 18:47:05
224,Saskylakh,71.92,114.08,6.31,85,100,8.46,RU,overcast clouds,0.0,0.0,2020-02-23 18:40:31
225,Berdigestyakh,62.1,126.7,-4.76,98,94,2.57,RU,overcast clouds,0.0,0.0,2020-02-23 18:49:52
226,Kiama,-34.68,150.87,66.99,77,90,5.82,AU,overcast clouds,0.0,0.0,2020-02-23 18:46:31
227,Zonguldak,41.25,31.83,34.41,91,0,3.47,TR,clear sky,0.0,0.0,2020-02-23 18:49:53
228,Tiarei,-17.53,-149.33,84.2,70,20,4.7,PF,few clouds,0.0,0.0,2020-02-23 18:49:53
229,Basco,20.45,121.97,74.32,78,100,21.61,PH,light rain,0.44,0.0,2020-02-23 18:49:53
230,Ilulissat,69.22,-51.1,-0.4,49,0,2.24,GL,clear sky,0.0,0.0,2020-02-23 18:40:46
231,Boddam,57.47,-1.78,41.0,72,8,14.99,GB,clear sky,0.0,0.0,2020-02-23 18:49:54
232,Khatanga,71.97,102.5,12.67,92,98,15.46,RU,light snow,0.0,0.25,2020-02-23 18:40:31
233,Nanortalik,60.14,-45.24,26.92,89,100,6.69,GL,light snow,0.0,0.81,2020-02-23 18:46:58
234,Sao Felipe,-14.82,-41.38,83.32,67,70,3.04,BR,light rain,3.0,0.0,2020-02-23 18:49:54
235,San Quintin,30.48,-115.95,60.87,65,0,17.43,MX,clear sky,0.0,0.0,2020-02-23 18:40:23
236,Dekar,-21.53,21.93,70.27,82,93,11.65,BW,moderate rain,5.31,0.0,2020-02-23 18:49:55
237,Sompeta,18.93,84.6,67.98,62,0,3.91,IN,clear sky,0.0,0.0,2020-02-23 18:49:55
238,Berlevag,70.86,29.09,28.4,92,75,5.82,NO,light shower snow,0.0,0.0,2020-02-23 18:47:06
239,Tigil,57.8,158.67,2.34,76,99,6.33,RU,overcast clouds,0.0,0.0,2020-02-23 18:49:55
240,Yar-Sale,66.83,70.83,30.34,85,100,24.94,RU,overcast clouds,0.0,0.0,2020-02-23 18:40:48
241,Guasdualito,7.24,-70.73,95.0,39,40,3.36,VE,scattered clouds,0.0,0.0,2020-02-23 18:49:56
242,Chiang Klang,19.29,100.86,64.83,52,16,2.48,TH,few clouds,0.0,0.0,2020-02-23 18:49:56
243,Leeton,-34.57,146.4,62.6,77,1,3.24,AU,clear sky,0.0,0.0,2020-02-23 18:49:32
244,Copiapo,-27.37,-70.33,75.2,53,2,8.05,CL,clear sky,0.0,0.0,2020-02-23 18:50:00
245,Sioux Lookout,50.1,-91.92,33.8,93,90,8.05,CA,light snow,0.0,0.0,2020-02-23 18:41:08
246,Port-Gentil,-0.72,8.78,82.4,88,20,5.82,GA,few clouds,0.0,0.0,2020-02-23 18:46:22
247,Cabo San Lucas,22.89,-109.91,84.0,44,75,10.29,MX,broken clouds,0.0,0.0,2020-02-23 18:40:47
248,Benalla,-36.55,145.98,71.01,83,90,3.36,AU,overcast clouds,0.0,0.0,2020-02-23 18:50:01
249,Vardo,70.37,31.11,26.6,86,75,11.41,NO,broken clouds,0.0,0.0,2020-02-23 18:41:56
250,Okhotsk,59.38,143.3,-14.03,84,0,5.75,RU,clear sky,0.0,0.0,2020-02-23 18:47:07
251,Dingle,11.0,122.67,72.12,92,27,10.04,PH,light rain,0.38,0.0,2020-02-23 18:45:55
252,Leningradskiy,69.38,178.42,-12.39,75,100,6.31,RU,overcast clouds,0.0,0.0,2020-02-23 18:50:01
253,Lyaskelya,61.77,31.02,32.81,92,100,8.43,RU,overcast clouds,0.0,0.0,2020-02-23 18:50:02
254,Baykit,61.67,96.37,9.82,96,100,3.11,RU,overcast clouds,0.0,0.0,2020-02-23 18:50:02
255,Yangambi,0.81,24.43,81.88,43,43,0.27,CD,scattered clouds,0.0,0.0,2020-02-23 18:50:02
256,Poum,-20.23,164.02,80.62,76,37,22.37,NC,scattered clouds,0.0,0.0,2020-02-23 18:47:58
257,Sitka,57.05,-135.33,33.8,86,90,10.29,US,light rain,0.0,0.0,2020-02-23 18:41:09
258,Umtata,-31.59,28.78,57.2,82,90,9.17,ZA,overcast clouds,0.0,0.0,2020-02-23 18:46:38
259,Phangnga,8.45,98.53,80.6,69,20,9.17,TH,few clouds,0.0,0.0,2020-02-23 18:50:03
260,Anloga,5.79,0.9,86.0,84,20,12.75,GH,few clouds,0.0,0.0,2020-02-23 18:50:03
261,Bilma,18.69,12.92,70.43,15,79,10.87,NE,broken clouds,0.0,0.0,2020-02-23 18:42:07
262,Touros,-5.2,-35.46,87.8,62,78,14.99,BR,broken clouds,0.0,0.0,2020-02-23 18:40:54
263,Clyde River,70.47,-68.59,-22.0,74,1,12.75,CA,clear sky,0.0,0.0,2020-02-23 18:40:59
264,Port Macquarie,-31.43,152.92,68.0,94,75,4.7,AU,broken clouds,0.0,0.0,2020-02-23 18:50:04
265,Thinadhoo,0.53,72.93,83.16,80,90,15.12,MV,light rain,0.31,0.0,2020-02-23 18:45:19
266,Myitkyina,25.38,97.4,59.54,98,100,3.51,MM,light rain,1.81,0.0,2020-02-23 18:50:05
267,Talnakh,69.49,88.4,14.0,92,75,29.08,RU,shower snow,0.0,0.0,2020-02-23 18:42:11
268,Ponta Delgada,37.73,-25.67,60.8,87,20,8.05,PT,few clouds,0.0,0.0,2020-02-23 18:41:39
269,Qui Nhon,13.77,109.23,61.48,93,3,3.27,VN,clear sky,0.0,0.0,2020-02-23 18:50:05
270,Mumford,5.26,-0.76,83.34,79,66,11.39,GH,light rain,0.31,0.0,2020-02-23 18:50:05
271,Gamba,-2.65,10.0,79.97,85,81,5.17,GA,light rain,1.31,0.0,2020-02-23 18:50:06
272,College,64.86,-147.8,-4.0,83,20,0.98,US,few clouds,0.0,0.0,2020-02-23 18:38:31
273,Hokitika,-42.72,170.97,57.11,84,35,8.46,NZ,scattered clouds,0.0,0.0,2020-02-23 18:50:04
274,Pahrump,36.21,-115.98,55.99,71,1,3.36,US,clear sky,0.0,0.0,2020-02-23 18:46:59
275,Norman Wells,65.28,-126.83,6.8,77,90,9.17,CA,light snow,0.0,0.0,2020-02-23 18:42:14
276,Manaira,-7.71,-38.15,87.1,56,53,4.72,BR,light rain,1.06,0.0,2020-02-23 18:50:07
277,Bandarbeyla,9.49,50.81,78.4,76,86,16.78,SO,overcast clouds,0.0,0.0,2020-02-23 18:46:22
278,Turochak,52.26,87.12,16.68,97,100,1.59,RU,light snow,0.0,0.25,2020-02-23 18:50:07
279,Ngunguru,-35.62,174.5,55.99,86,25,14.58,NZ,scattered clouds,0.0,0.0,2020-02-23 18:50:08
280,Cabo Rojo,18.09,-67.15,82.99,59,75,14.99,PR,broken clouds,0.0,0.0,2020-02-23 18:50:08
281,Springbok,-29.66,17.89,79.95,16,0,12.82,ZA,clear sky,0.0,0.0,2020-02-23 18:50:09
282,Oranjemund,-28.55,16.43,74.73,46,0,16.89,NA,clear sky,0.0,0.0,2020-02-23 18:48:56
283,Awbari,26.59,12.78,56.25,44,0,7.9,LY,clear sky,0.0,0.0,2020-02-23 18:50:09
284,Svetlogorsk,52.63,29.73,37.24,73,56,8.97,BY,broken clouds,0.0,0.0,2020-02-23 18:50:10
285,Taltal,-25.4,-70.48,67.53,69,11,6.96,CL,few clouds,0.0,0.0,2020-02-23 18:46:35
286,Omboue,-1.57,9.26,78.33,89,61,5.06,GA,light rain,2.69,0.0,2020-02-23 18:50:10
287,Itacoatiara,-3.14,-58.44,89.44,63,55,5.28,BR,light rain,1.38,0.0,2020-02-23 18:50:11
288,Khanapur,15.63,74.52,68.67,55,18,2.75,IN,few clouds,0.0,0.0,2020-02-23 18:50:11
289,Houma,29.6,-90.72,70.0,55,1,6.93,US,clear sky,0.0,0.0,2020-02-23 18:48:35
290,Amapa,1.0,-52.0,82.08,85,90,3.69,BR,moderate rain,4.13,0.0,2020-02-23 18:47:14
291,Pinsk,52.12,26.1,40.44,74,98,12.5,BY,light rain,0.13,0.0,2020-02-23 18:50:11
292,Lompoc,34.64,-120.46,62.01,71,90,13.87,US,overcast clouds,0.0,0.0,2020-02-23 18:40:49
293,Padang,-0.95,100.35,70.88,84,0,6.73,ID,clear sky,0.0,0.0,2020-02-23 18:41:59
294,Srednekolymsk,67.45,153.68,-25.64,100,83,1.19,RU,broken clouds,0.0,0.0,2020-02-23 18:41:11
295,Marfino,55.7,37.38,37.0,86,55,11.18,RU,broken clouds,0.0,0.0,2020-02-23 18:45:38
296,Faanui,-16.48,-151.75,82.67,70,66,10.54,PF,broken clouds,0.0,0.0,2020-02-23 18:41:07
297,Drumheller,51.46,-112.71,28.99,33,100,11.12,CA,overcast clouds,0.0,0.0,2020-02-23 18:50:02
298,Mar Del Plata,-38.0,-57.56,81.0,53,20,11.41,AR,few clouds,0.0,0.0,2020-02-23 18:38:37
299,Zarubino,42.63,131.09,36.05,63,100,8.43,RU,overcast clouds,0.0,0.0,2020-02-23 18:50:13
300,Qeshm,26.96,56.27,71.6,94,20,2.24,IR,mist,0.0,0.0,2020-02-23 18:50:13
301,Grindavik,63.84,-22.43,32.0,64,90,19.46,IS,light shower snow,0.0,0.0,2020-02-23 18:40:41
302,Kashan,33.98,51.44,57.61,41,0,3.11,IR,clear sky,0.0,0.0,2020-02-23 18:50:14
303,Umiray,15.22,121.41,71.65,92,74,16.44,PH,light rain,1.62,0.0,2020-02-23 18:50:14
304,Kondinskoye,59.65,67.41,29.05,92,91,11.77,RU,overcast clouds,0.0,0.0,2020-02-23 18:50:14
305,Peniche,39.36,-9.38,70.0,52,0,2.24,PT,clear sky,0.0,0.0,2020-02-23 18:40:12
306,Yidu,24.16,115.13,62.17,83,10,2.75,CN,clear sky,0.0,0.0,2020-02-23 18:50:15
307,Kailua,21.4,-157.74,75.2,64,20,7.54,US,few clouds,0.0,0.0,2020-02-23 18:50:15
308,Mahebourg,-20.41,57.7,77.0,88,75,4.7,MU,broken clouds,0.0,0.0,2020-02-23 18:41:36
309,Morondava,-20.28,44.28,76.82,90,72,1.45,MG,broken clouds,0.0,0.0,2020-02-23 18:50:16
310,West Wendover,40.74,-114.07,42.8,38,1,9.17,US,clear sky,0.0,0.0,2020-02-23 18:50:16
311,Victoria,22.29,114.16,69.01,63,66,18.34,HK,broken clouds,0.0,0.0,2020-02-23 18:40:53
312,Olonets,60.98,32.97,35.46,91,100,13.69,RU,light snow,0.0,0.19,2020-02-23 18:50:17
313,Srandakan,-7.94,110.25,76.17,81,34,2.77,ID,scattered clouds,0.0,0.0,2020-02-23 18:50:17
314,Hope,33.67,-93.59,57.0,71,90,8.05,US,overcast clouds,0.0,0.0,2020-02-23 18:50:17
315,Mataram,-8.58,116.12,78.8,94,40,8.61,ID,scattered clouds,0.0,0.0,2020-02-23 18:50:18
316,Namibe,-15.2,12.15,75.15,79,93,11.72,AO,overcast clouds,0.0,0.0,2020-02-23 18:45:28
317,Jackson,42.42,-122.83,54.0,58,90,6.93,US,overcast clouds,0.0,0.0,2020-02-23 18:50:18
318,Aripuana,-9.17,-60.63,82.38,88,95,1.83,BR,moderate rain,3.31,0.0,2020-02-23 18:47:04
319,Nantucket,41.28,-70.1,51.8,70,1,11.41,US,clear sky,0.0,0.0,2020-02-23 18:50:18
320,Muskegon,43.3,-86.13,46.99,83,1,17.22,US,clear sky,0.0,0.0,2020-02-23 18:50:19
321,Merauke,-8.47,140.33,76.69,95,100,5.61,ID,overcast clouds,0.0,0.0,2020-02-23 18:49:49
322,Talaya,61.38,152.75,-15.0,100,97,1.83,RU,overcast clouds,0.0,0.0,2020-02-23 18:50:19
323,Borjomi,41.85,43.41,35.31,96,100,3.29,GE,overcast clouds,0.0,0.0,2020-02-23 18:50:19
324,Rock Springs,41.59,-109.2,26.6,53,1,9.17,US,clear sky,0.0,0.0,2020-02-23 18:47:41
325,Haines Junction,60.75,-137.51,5.56,95,100,4.74,CA,light snow,0.0,0.94,2020-02-23 18:50:20
326,Manggar,-2.88,108.27,82.0,80,3,12.59,ID,light rain,2.88,0.0,2020-02-23 18:47:09
327,Singaraja,-8.11,115.09,82.65,75,60,3.94,ID,broken clouds,0.0,0.0,2020-02-23 18:45:54
328,Belmonte,-15.86,-38.88,87.8,74,40,6.93,BR,scattered clouds,0.0,0.0,2020-02-23 18:48:41
329,Inta,66.03,60.17,26.69,83,84,20.71,RU,broken clouds,0.0,0.0,2020-02-23 18:50:21
330,Emba,48.83,58.14,17.26,94,100,9.01,KZ,overcast clouds,0.0,0.0,2020-02-23 18:50:21
331,Nelson Bay,-32.72,152.15,70.0,82,100,2.46,AU,overcast clouds,0.0,0.0,2020-02-23 18:46:35
332,Margate,51.38,1.39,48.99,49,98,10.29,GB,overcast clouds,0.0,0.0,2020-02-23 18:50:21
333,Marrakesh,31.63,-8.01,78.8,15,0,4.7,MA,clear sky,0.0,0.0,2020-02-23 18:50:22
334,Vysokogornyy,50.12,139.15,-6.02,100,100,1.45,RU,overcast clouds,0.0,0.0,2020-02-23 18:50:22
335,Mecca,21.43,39.83,74.35,62,100,5.86,SA,overcast clouds,0.0,0.0,2020-02-23 18:50:18
336,Mitsamiouli,-11.38,43.28,82.4,83,20,2.24,KM,few clouds,0.0,0.0,2020-02-23 18:50:22
337,Severo-Kurilsk,50.68,156.12,23.5,96,100,37.63,RU,snow,0.0,3.06,2020-02-23 18:40:43
338,Dunedin,-45.87,170.5,57.99,81,94,3.11,NZ,overcast clouds,0.0,0.0,2020-02-23 18:50:14
339,Mabaruma,8.2,-59.78,81.48,88,53,3.76,GY,light rain,2.75,0.0,2020-02-23 18:50:23
340,Cervo,43.67,-7.41,52.0,91,0,1.01,ES,clear sky,0.0,0.0,2020-02-23 18:50:23
341,Boueni,-12.9,45.08,82.4,83,99,4.7,YT,light rain,0.31,0.0,2020-02-23 18:50:23
342,Raymond,43.9,-70.47,48.99,41,1,4.7,US,clear sky,0.0,0.0,2020-02-23 18:50:24
343,Portland,45.52,-122.68,48.99,66,75,20.8,US,light rain,0.0,0.0,2020-02-23 18:39:59
344,Puerto El Triunfo,13.28,-88.55,96.8,30,20,12.75,SV,smoke,0.0,0.0,2020-02-23 18:50:24
345,Moose Factory,51.26,-80.61,12.2,85,1,12.75,CA,clear sky,0.0,0.0,2020-02-23 18:49:22
346,Montrose,38.42,-108.27,46.99,55,75,10.29,US,light rain,0.0,0.0,2020-02-23 18:50:24
347,Grand-Santi,4.25,-54.38,93.58,44,78,4.0,GF,light rain,0.12,0.0,2020-02-23 18:50:25
348,Bambanglipuro,-7.95,110.28,76.17,81,34,2.77,ID,scattered clouds,0.0,0.0,2020-02-23 18:48:54
349,Bonavista,48.65,-53.11,35.01,79,61,13.0,CA,broken clouds,0.0,0.0,2020-02-23 18:50:25
350,Hanmer Springs,-42.52,172.82,47.7,66,48,3.18,NZ,scattered clouds,0.0,0.0,2020-02-23 18:50:25
351,Saint-Francois,46.42,3.91,57.0,62,40,2.24,FR,scattered clouds,0.0,0.0,2020-02-23 18:50:26
352,Vereshchagino,58.08,54.66,25.07,88,97,17.74,RU,overcast clouds,0.0,0.0,2020-02-23 18:50:26
353,Qaqortoq,60.72,-46.03,24.8,58,100,5.82,GL,light snow,0.0,1.0,2020-02-23 18:50:26
354,Christchurch,-43.53,172.63,60.01,82,42,13.87,NZ,scattered clouds,0.0,0.0,2020-02-23 18:49:55
355,Galesong,-5.32,119.37,78.8,94,20,2.24,ID,few clouds,0.0,0.0,2020-02-23 18:50:26
356,Tygda,53.12,126.33,6.55,96,100,2.19,RU,light snow,0.0,0.25,2020-02-23 18:50:27
357,Mbarara,-0.61,30.65,69.73,71,67,1.57,UG,light rain,0.13,0.0,2020-02-23 18:50:27
358,Arraial Do Cabo,-22.97,-42.03,80.6,69,75,11.41,BR,broken clouds,0.0,0.0,2020-02-23 18:40:41
359,Belen,36.49,36.22,55.99,87,75,8.05,TR,broken clouds,0.0,0.0,2020-02-23 18:50:27
360,Nyzhni Sirohozy,46.85,34.38,40.78,78,100,16.35,UA,overcast clouds,0.0,0.0,2020-02-23 18:50:28
361,Karratha,-20.74,116.85,81.64,77,7,15.28,AU,clear sky,0.0,0.0,2020-02-23 18:42:10
362,Chepo,9.17,-79.1,91.4,43,40,9.17,PA,scattered clouds,0.0,0.0,2020-02-23 18:50:28
363,Port Hardy,50.7,-127.42,41.0,86,75,24.16,CA,light intensity shower rain,0.0,0.0,2020-02-23 18:37:43
364,Geraldton,-28.77,114.6,73.4,88,0,2.24,AU,clear sky,0.0,0.0,2020-02-23 18:41:01
365,Mariakani,-3.86,39.47,82.4,83,20,6.93,KE,few clouds,0.0,0.0,2020-02-23 18:50:29
366,San Matias,-16.37,-58.4,70.14,83,100,3.15,BO,light rain,0.19,0.0,2020-02-23 18:50:29
367,Naryan-Mar,67.67,53.09,29.91,83,99,29.26,RU,overcast clouds,0.0,0.0,2020-02-23 18:49:22
368,Axim,4.87,-2.24,82.76,80,93,7.83,GH,light rain,0.88,0.0,2020-02-23 18:50:30
369,Voh,-20.97,164.7,76.87,78,100,9.8,NC,overcast clouds,0.0,0.0,2020-02-23 18:50:30
370,Mount Pleasant,32.79,-79.86,64.0,29,1,4.23,US,clear sky,0.0,0.0,2020-02-23 18:46:09
371,Chuguyevka,44.17,133.86,16.21,96,94,4.34,RU,light snow,0.0,0.38,2020-02-23 18:50:30
372,Osorheiu,47.03,22.05,50.0,61,100,23.04,RO,light rain,0.75,0.0,2020-02-23 18:50:31
373,Muscat,23.61,58.59,75.2,78,0,2.24,OM,clear sky,0.0,0.0,2020-02-23 18:49:53
374,Bahia Honda,22.9,-83.16,77.43,64,31,15.3,CU,light rain,0.63,0.0,2020-02-23 18:50:31
375,Whyalla,-33.03,137.58,68.0,72,83,5.82,AU,broken clouds,0.0,0.0,2020-02-23 18:50:31
376,Derzhavinsk,51.1,66.32,10.99,95,74,5.79,KZ,broken clouds,0.0,0.0,2020-02-23 18:50:31
377,Kununurra,-15.77,128.73,78.8,83,21,4.7,AU,few clouds,0.0,0.0,2020-02-23 18:40:36
378,Vanavara,60.34,102.28,14.13,95,97,6.98,RU,overcast clouds,0.0,0.0,2020-02-23 18:46:29
379,Rivarolo Canavese,45.33,7.72,54.0,66,89,1.12,IT,overcast clouds,0.0,0.0,2020-02-23 18:50:32
380,Trairi,-3.28,-39.27,83.08,70,94,4.32,BR,overcast clouds,0.0,0.0,2020-02-23 18:50:32
381,San Patricio,19.22,-104.7,84.2,74,5,11.41,MX,clear sky,0.0,0.0,2020-02-23 18:40:38
382,Kaffrine,14.11,-15.55,93.2,30,90,4.34,SN,overcast clouds,0.0,0.0,2020-02-23 18:50:33
383,Kagawasan,7.87,123.39,72.46,91,100,2.19,PH,overcast clouds,0.0,0.0,2020-02-23 18:50:33
384,Paredon,16.03,-93.87,81.07,64,0,16.75,MX,clear sky,0.0,0.0,2020-02-23 18:50:33
385,Gat,31.61,34.76,59.0,77,75,2.24,IL,broken clouds,0.0,0.0,2020-02-23 18:46:03
386,Buala,-8.14,159.59,80.01,84,19,5.95,SB,light rain,1.38,0.0,2020-02-23 18:50:34
387,Esperance,-33.87,121.9,66.2,88,75,8.05,AU,broken clouds,0.0,0.0,2020-02-23 18:41:00
388,Ibra,22.69,58.53,73.6,48,7,8.1,OM,clear sky,0.0,0.0,2020-02-23 18:50:34
389,Tucuman,-26.82,-65.22,77.0,57,75,5.82,AR,broken clouds,0.0,0.0,2020-02-23 18:49:03
390,Las Vegas,36.17,-115.14,59.0,54,1,8.05,US,clear sky,0.0,0.0,2020-02-23 18:48:59
391,East London,-33.02,27.91,66.2,68,20,3.36,ZA,few clouds,0.0,0.0,2020-02-23 18:40:54
392,Ginda,30.69,78.49,43.23,75,39,5.26,IN,scattered clouds,0.0,0.0,2020-02-23 18:50:35
393,Minab,27.15,57.08,68.0,94,26,2.24,IR,mist,0.0,0.0,2020-02-23 18:50:35
394,Alberton,46.82,-64.07,32.67,89,35,14.88,CA,scattered clouds,0.0,0.0,2020-02-23 18:50:35
395,Gizo,-8.1,156.84,77.25,90,54,5.26,SB,light rain,0.63,0.0,2020-02-23 18:50:36
396,Orbetello,42.44,11.22,53.6,81,42,6.93,IT,scattered clouds,0.0,0.0,2020-02-23 18:50:36
397,Chino Valley,34.76,-112.45,48.0,93,90,3.36,US,light intensity drizzle,0.0,0.0,2020-02-23 18:50:36
398,Osmena,10.52,119.93,79.9,79,0,22.79,PH,clear sky,0.0,0.0,2020-02-23 18:50:36
399,Birin,26.89,88.07,46.69,74,51,5.12,NP,light rain,0.13,0.0,2020-02-23 18:50:36
400,Kharagauli,42.02,43.2,44.6,93,90,2.24,GE,overcast clouds,0.0,0.0,2020-02-23 18:50:37
401,Adrar,20.5,-10.07,92.03,8,97,9.62,MR,overcast clouds,0.0,0.0,2020-02-23 18:50:37
402,Ialibu,-6.28,143.99,61.81,99,100,1.5,PG,heavy intensity rain,29.87,0.0,2020-02-23 18:50:37
403,Katherine,-14.47,132.27,82.4,78,90,8.05,AU,overcast clouds,0.0,0.0,2020-02-23 18:46:41
404,Labuan,5.28,115.24,80.6,88,75,10.29,MY,broken clouds,0.0,0.0,2020-02-23 18:50:38
405,Saldanha,-33.01,17.94,78.8,34,0,12.75,ZA,clear sky,0.0,0.0,2020-02-23 18:41:05
406,Kulhudhuffushi,6.62,73.07,82.22,77,85,9.19,MV,overcast clouds,0.0,0.0,2020-02-23 18:46:29
407,Jinji,23.23,110.83,65.39,72,48,1.83,CN,scattered clouds,0.0,0.0,2020-02-23 18:50:38
408,Alibag,18.64,72.88,80.6,47,0,1.41,IN,smoke,0.0,0.0,2020-02-23 18:50:39
409,Rio Gallegos,-51.62,-69.22,62.6,36,40,16.11,AR,scattered clouds,0.0,0.0,2020-02-23 18:48:03
410,Aban,56.67,96.06,8.37,96,47,0.87,RU,scattered clouds,0.0,0.0,2020-02-23 18:47:05
411,Maputo,-25.97,32.59,73.99,64,75,18.34,MZ,broken clouds,0.0,0.0,2020-02-23 18:50:39
412,Conde,-7.26,-34.91,87.8,66,43,11.41,BR,scattered clouds,0.0,0.0,2020-02-23 18:50:40
413,Dogondoutchi,13.64,4.03,86.86,8,0,9.93,NE,clear sky,0.0,0.0,2020-02-23 18:50:40
414,Bima,-8.47,118.72,72.14,97,100,1.81,ID,overcast clouds,0.0,0.0,2020-02-23 18:45:38
415,Tabuk,17.42,121.44,67.21,95,82,2.64,PH,light rain,0.12,0.0,2020-02-23 18:50:40
416,Redcliffe,-27.23,153.1,72.0,94,75,10.29,AU,light rain,0.0,0.0,2020-02-23 18:50:40
417,Luganville,-15.53,167.17,78.8,83,40,5.82,VU,scattered clouds,0.0,0.0,2020-02-23 18:50:41
418,Lagoa,39.05,-27.98,60.24,78,15,11.54,PT,few clouds,0.0,0.0,2020-02-23 18:40:58
419,Salinas,36.68,-121.66,57.99,66,75,4.7,US,broken clouds,0.0,0.0,2020-02-23 18:44:42
420,Tocopilla,-22.09,-70.2,73.71,47,5,14.97,CL,clear sky,0.0,0.0,2020-02-23 18:50:41
421,Saint-Augustin,51.23,-58.65,31.91,74,93,13.69,CA,light snow,0.0,0.25,2020-02-23 18:50:41
422,Puerto Suarez,-18.95,-57.8,87.8,55,75,5.82,BO,broken clouds,0.0,0.0,2020-02-23 18:50:42
423,Ochamchira,42.71,41.47,46.87,84,83,3.04,GE,broken clouds,0.0,0.0,2020-02-23 18:50:42
424,Pushkino,56.02,37.87,37.0,89,51,13.42,RU,broken clouds,0.0,0.0,2020-02-23 18:50:42
425,Jibuti,11.5,42.5,78.8,74,75,3.36,DJ,broken clouds,0.0,0.0,2020-02-23 18:48:49
426,Cairns,-16.92,145.77,78.8,94,75,6.93,AU,heavy intensity rain,0.0,0.0,2020-02-23 18:50:43
427,Storm Lake,42.64,-95.21,50.0,61,1,11.41,US,clear sky,0.0,0.0,2020-02-23 18:49:26
428,Edgewater,28.99,-80.9,78.01,60,20,11.41,US,few clouds,0.0,0.0,2020-02-23 18:50:43
429,Hobyo,5.35,48.53,77.76,72,57,16.64,SO,broken clouds,0.0,0.0,2020-02-23 18:41:21
430,Provideniya,64.38,-173.3,-9.76,73,0,2.24,RU,clear sky,0.0,0.0,2020-02-23 18:40:57
431,Bose,45.46,8.01,55.4,66,95,1.12,IT,overcast clouds,0.0,0.0,2020-02-23 18:50:44
432,Kabalo,-6.05,26.92,73.89,92,97,2.62,CD,light rain,1.88,0.0,2020-02-23 18:50:44
433,Bruiu,45.87,24.7,45.0,56,40,4.7,RO,scattered clouds,0.0,0.0,2020-02-23 18:50:44
434,Bemidji,47.47,-94.88,37.99,74,90,23.04,US,overcast clouds,0.0,0.0,2020-02-23 18:50:44
435,Puerto Leguizamo,-0.19,-74.78,83.25,70,100,7.07,CO,light rain,1.63,0.0,2020-02-23 18:50:45
436,Sibolga,1.74,98.78,72.27,84,0,3.4,ID,clear sky,0.0,0.0,2020-02-23 18:50:45
437,Valparaiso,-33.04,-71.63,66.2,68,20,4.7,CL,few clouds,0.0,0.0,2020-02-23 18:43:13
438,Mazagao,-0.12,-51.29,87.8,79,75,6.93,BR,broken clouds,0.0,0.0,2020-02-23 18:46:08
439,Hasaki,35.73,140.83,41.0,44,20,3.36,JP,few clouds,0.0,0.0,2020-02-23 18:40:57
440,Solnechnyy,50.72,136.63,1.42,89,24,1.3,RU,few clouds,0.0,0.0,2020-02-23 18:46:11
441,Muli,2.92,73.57,83.19,80,78,20.09,MV,light rain,0.5,0.0,2020-02-23 18:50:46
442,Garachine,8.06,-78.36,79.38,76,56,12.08,PA,broken clouds,0.0,0.0,2020-02-23 18:50:46
443,Luanda,-8.84,13.23,82.4,74,75,9.17,AO,broken clouds,0.0,0.0,2020-02-23 18:41:55
444,Rodrigues Alves,-7.74,-72.65,82.4,78,75,6.93,BR,broken clouds,0.0,0.0,2020-02-23 18:50:46
445,Estreito,-5.78,-43.25,89.89,58,56,2.1,BR,broken clouds,0.0,0.0,2020-02-23 18:50:47
446,Simplicio Mendes,-7.85,-41.91,85.35,68,83,3.06,BR,light rain,0.13,0.0,2020-02-23 18:50:47
447,Nara,34.69,135.8,42.8,75,6,4.7,JP,clear sky,0.0,0.0,2020-02-23 18:48:42
448,Sorland,67.67,12.69,33.8,86,90,44.96,NO,light shower snow,0.0,0.0,2020-02-23 18:46:13
449,Cardston,49.2,-113.3,37.99,69,75,8.05,CA,broken clouds,0.0,0.0,2020-02-23 18:47:48
450,Hurghada,27.26,33.81,66.96,58,100,15.64,EG,overcast clouds,0.0,0.0,2020-02-23 18:43:19
451,Thamaga,-24.67,25.54,73.4,73,40,10.29,BW,scattered clouds,0.0,0.0,2020-02-23 18:50:48
452,Bulgan,48.81,103.53,11.88,96,100,2.86,MN,light snow,0.0,0.56,2020-02-23 18:50:48
453,Half Moon Bay,37.46,-122.43,57.99,71,75,19.46,US,broken clouds,0.0,0.0,2020-02-23 18:41:04
454,Klaksvik,62.23,-6.59,37.4,74,80,23.04,FO,light snow,0.0,0.69,2020-02-23 18:40:56
455,Vrangel,42.73,133.08,35.24,66,71,7.07,RU,broken clouds,0.0,0.0,2020-02-23 18:50:49
456,Pacific Grove,36.62,-121.92,57.99,76,90,8.05,US,light rain,0.0,0.0,2020-02-23 18:42:22
457,Laredo,27.51,-99.51,75.2,57,75,12.75,US,broken clouds,0.0,0.0,2020-02-23 18:47:13
458,Pevek,69.7,170.31,-11.27,98,100,1.92,RU,light snow,0.0,0.13,2020-02-23 18:42:21
459,Pustoshka,56.34,29.37,35.94,85,100,12.86,RU,light snow,0.0,0.19,2020-02-23 18:50:49
460,Jatai,-17.88,-51.71,80.22,79,84,3.53,BR,moderate rain,5.94,0.0,2020-02-23 18:50:50
461,Ballina,-28.87,153.57,68.0,100,100,6.93,AU,moderate rain,4.63,0.0,2020-02-23 18:50:50
462,Kahului,20.89,-156.47,73.4,77,20,4.7,US,few clouds,0.0,0.0,2020-02-23 18:43:28
463,Inverell,-29.78,151.12,64.0,93,100,1.99,AU,overcast clouds,0.0,0.0,2020-02-23 18:50:50
464,Tessaoua,13.76,7.99,81.37,11,21,13.87,NE,few clouds,0.0,0.0,2020-02-23 18:50:51
465,Gambela,8.25,34.58,85.6,22,46,2.86,ET,scattered clouds,0.0,0.0,2020-02-23 18:50:51
466,Richards Bay,-28.78,32.04,74.25,66,44,24.2,ZA,light rain,0.44,0.0,2020-02-23 18:41:33
467,Bukene,-4.23,32.88,70.29,89,72,5.46,TZ,light rain,1.13,0.0,2020-02-23 18:50:51
468,Marshall,34.38,-86.33,55.0,37,90,10.29,US,overcast clouds,0.0,0.0,2020-02-23 18:50:52
469,Samarai,-10.62,150.67,77.07,89,10,2.55,PG,light rain,0.19,0.0,2020-02-23 18:48:17
470,Callaway,30.15,-85.57,66.0,63,20,4.7,US,few clouds,0.0,0.0,2020-02-23 18:50:53
471,Riviere-Au-Renard,49.0,-64.4,37.4,55,75,11.41,CA,broken clouds,0.0,0.0,2020-02-23 18:50:53
472,Olenino,56.21,33.49,33.84,94,88,14.32,RU,light snow,0.0,0.31,2020-02-23 18:50:53
473,Malpe,13.35,74.72,80.6,74,97,6.08,IN,overcast clouds,0.0,0.0,2020-02-23 18:50:53
474,Akyab,20.15,92.9,71.28,59,0,7.9,MM,clear sky,0.0,0.0,2020-02-23 18:48:03
475,Aksarka,66.56,67.8,28.45,87,99,24.7,RU,overcast clouds,0.0,0.0,2020-02-23 18:50:54
476,Mangai,-4.05,19.53,77.95,79,98,3.65,CD,overcast clouds,0.0,0.0,2020-02-23 18:45:43
477,Acarau,-2.89,-40.12,85.75,69,85,4.65,BR,light rain,0.31,0.0,2020-02-23 18:50:54
478,Maceio,-9.67,-35.74,87.8,66,20,16.11,BR,few clouds,0.0,0.0,2020-02-23 18:40:43
479,Sinnamary,5.38,-52.95,79.25,82,58,15.9,GF,light rain,0.19,0.0,2020-02-23 18:48:15
480,Las Palmas,28.42,-14.01,71.6,60,90,13.87,ES,haze,0.0,0.0,2020-02-23 18:50:55
481,Hami,42.8,93.45,29.95,56,53,1.68,CN,broken clouds,0.0,0.0,2020-02-23 18:50:55
482,Pyay,18.82,95.22,72.32,38,0,0.85,MM,clear sky,0.0,0.0,2020-02-23 18:50:55
483,Roald,62.58,6.13,35.6,74,75,9.17,NO,shower rain,0.0,0.0,2020-02-23 18:45:58
484,Fukue,32.69,128.84,46.4,65,0,3.36,JP,clear sky,0.0,0.0,2020-02-23 18:50:56
485,Chicama,-7.84,-79.15,73.4,88,75,6.93,PE,haze,0.0,0.0,2020-02-23 18:50:56
486,Los Llanos De Aridane,28.66,-17.92,73.4,60,90,12.75,ES,haze,0.0,0.0,2020-02-23 18:50:56
487,Kyren,51.68,102.14,2.68,98,100,0.18,RU,light snow,0.0,0.13,2020-02-23 18:50:57
488,Pouembout,-21.13,164.9,69.17,92,79,4.27,NC,broken clouds,0.0,0.0,2020-02-23 18:48:05
489,Manzanillo,20.34,-77.12,86.99,40,6,13.04,CU,clear sky,0.0,0.0,2020-02-23 18:50:57
490,Takoradi,4.88,-1.76,82.76,80,93,7.83,GH,light rain,0.88,0.0,2020-02-23 18:50:57
491,Cap Malheureux,-19.98,57.61,77.0,88,75,4.7,MU,broken clouds,0.0,0.0,2020-02-23 18:50:58
492,Xifeng,42.74,124.72,25.32,84,0,6.08,CN,clear sky,0.0,0.0,2020-02-23 18:50:58
493,Mahibadhoo,3.78,72.97,83.32,80,52,20.02,MV,broken clouds,0.0,0.0,2020-02-23 18:47:09
494,Ikom,5.97,8.71,88.81,14,4,1.92,NG,clear sky,0.0,0.0,2020-02-23 18:50:58
495,Comodoro Rivadavia,-45.87,-67.5,68.0,52,26,13.87,AR,scattered clouds,0.0,0.0,2020-02-23 18:43:05
496,Tondano,1.3,124.91,75.2,94,40,2.24,ID,scattered clouds,0.0,0.0,2020-02-23 18:50:59
497,Gornyak,50.99,81.47,11.07,98,90,1.77,RU,overcast clouds,0.0,0.0,2020-02-23 18:50:59
498,Yerbogachen,61.28,108.01,12.9,94,93,8.7,RU,overcast clouds,0.0,0.0,2020-02-23 18:46:46
499,Tubuala,9.52,-79.03,91.0,43,40,9.17,PA,scattered clouds,0.0,0.0,2020-02-23 18:50:59
500,Maraa,-1.83,-65.37,84.72,82,99,3.67,BR,moderate rain,3.19,0.0,2020-02-23 18:50:59
501,Acari,-15.43,-74.62,78.08,59,76,10.8,PE,broken clouds,0.0,0.0,2020-02-23 18:51:00
502,Aykino,62.22,49.99,27.19,91,100,14.43,RU,light snow,0.0,0.63,2020-02-23 18:51:00
503,Gweta,-20.18,25.23,76.68,70,100,3.62,BW,light rain,0.44,0.0,2020-02-23 18:45:56
504,Sabang,5.89,95.32,83.44,74,0,25.75,ID,clear sky,0.0,0.0,2020-02-23 18:51:00
505,Plouzane,48.38,-4.62,53.6,93,90,14.99,FR,light intensity drizzle,0.0,0.0,2020-02-23 18:51:00
506,Hoquiam,46.98,-123.89,48.0,87,75,26.4,US,broken clouds,0.0,0.0,2020-02-23 18:48:21
507,San Felipe,10.34,-68.74,86.5,46,96,7.16,VE,overcast clouds,0.0,0.0,2020-02-23 18:51:01
508,San Pedro,14.35,121.02,77.0,78,75,5.82,PH,broken clouds,0.0,0.0,2020-02-23 18:51:01
509,Birao,10.28,22.79,81.73,12,24,7.36,CF,few clouds,0.0,0.0,2020-02-23 18:51:01
510,Mende,44.67,3.5,51.8,34,0,4.7,FR,clear sky,0.0,0.0,2020-02-23 18:51:02
511,Sisimiut,66.94,-53.67,0.01,68,64,1.86,GL,broken clouds,0.0,0.0,2020-02-23 18:47:02
512,Yakymivka,46.69,35.15,41.81,78,100,16.67,UA,overcast clouds,0.0,0.0,2020-02-23 18:51:02
513,Wanaka,-44.7,169.15,48.0,82,57,5.48,NZ,broken clouds,0.0,0.0,2020-02-23 18:50:04
514,Paramonga,-10.67,-77.83,73.99,80,19,9.08,PE,few clouds,0.0,0.0,2020-02-23 18:51:02
515,Lenger,42.18,69.88,37.4,93,90,6.91,KZ,mist,0.0,0.0,2020-02-23 18:51:03
516,Kanash,55.51,47.5,30.2,100,90,13.42,RU,shower snow,0.0,0.0,2020-02-23 18:51:03
517,Alamosa,37.47,-105.87,39.2,74,90,4.07,US,overcast clouds,0.0,0.0,2020-02-23 18:51:03
518,Lodeynoye Pole,60.73,33.55,35.78,88,100,10.29,RU,light snow,0.0,0.38,2020-02-23 18:51:03
519,Celestun,20.87,-90.4,72.41,60,7,5.46,MX,clear sky,0.0,0.0,2020-02-23 18:50:01
520,Sao Borja,-28.66,-56.0,84.34,26,21,5.77,BR,few clouds,0.0,0.0,2020-02-23 18:51:04
521,Karabuk,41.2,32.63,29.25,90,33,4.9,TR,scattered clouds,0.0,0.0,2020-02-23 18:51:04
522,Kyabe,9.45,18.94,88.63,12,0,4.94,TD,clear sky,0.0,0.0,2020-02-23 18:51:04
523,Queanbeyan,-35.35,149.23,61.0,93,46,4.7,AU,scattered clouds,0.0,0.0,2020-02-23 18:51:04
524,Ratnagiri,16.98,73.3,70.38,61,0,2.55,IN,clear sky,0.0,0.0,2020-02-23 18:51:05
525,Dengzhou,37.81,120.75,44.31,73,0,16.8,CN,clear sky,0.0,0.0,2020-02-23 18:51:05
526,Redmond,47.67,-122.12,46.99,75,75,12.75,US,light rain,0.0,0.0,2020-02-23 18:47:51
527,Zapolyarnyy,69.42,30.81,23.0,92,75,8.05,RU,broken clouds,0.0,0.0,2020-02-23 18:51:05
528,Mount Isa,-20.73,139.5,80.6,74,40,11.41,AU,scattered clouds,0.0,0.0,2020-02-23 18:42:05
529,Ca Mau,9.18,105.15,75.45,71,6,9.75,VN,clear sky,0.0,0.0,2020-02-23 18:45:45
530,Mandiana,10.63,-8.68,97.45,11,57,4.27,GN,broken clouds,0.0,0.0,2020-02-23 18:51:06
531,Altay,47.87,88.12,10.11,88,100,2.53,CN,overcast clouds,0.0,0.0,2020-02-23 18:51:06
532,Sandakan,5.84,118.12,78.8,83,20,6.93,MY,few clouds,0.0,0.0,2020-02-23 18:51:06
533,Litovko,49.24,135.17,2.82,98,100,1.97,RU,overcast clouds,0.0,0.0,2020-02-23 18:51:06
534,Pemberton,50.32,-122.8,32.0,93,90,3.24,CA,light snow,0.0,0.0,2020-02-23 18:51:07
535,Nome,64.5,-165.41,1.4,84,90,11.41,US,mist,0.0,0.0,2020-02-23 18:51:07
536,The Valley,18.22,-63.06,86.0,58,20,3.36,AI,few clouds,0.0,0.0,2020-02-23 18:45:46
537,Kovur,14.48,79.98,74.14,84,89,6.58,IN,overcast clouds,0.0,0.0,2020-02-23 18:51:07
538,Eureka,40.8,-124.16,54.0,66,90,4.7,US,overcast clouds,0.0,0.0,2020-02-23 18:51:07
539,Marienburg,54.04,19.03,41.0,86,75,8.05,PL,broken clouds,0.0,0.0,2020-02-23 18:45:57
540,Panguna,-6.32,155.48,70.47,96,57,1.7,PG,light rain,1.19,0.0,2020-02-23 18:51:08
541,Changde,29.05,111.68,56.05,88,100,3.36,CN,overcast clouds,0.0,0.0,2020-02-23 18:51:08
542,Brejo Da Madre De Deus,-8.15,-36.37,88.65,42,82,4.5,BR,broken clouds,0.0,0.0,2020-02-23 18:51:08
543,Novopavlovka,51.22,109.21,0.57,96,44,2.71,RU,scattered clouds,0.0,0.0,2020-02-23 18:51:08
544,Waingapu,-9.66,120.26,83.37,77,99,17.98,ID,overcast clouds,0.0,0.0,2020-02-23 18:51:09
545,Skibbereen,51.55,-9.27,42.8,93,75,3.36,IE,light rain,0.0,0.0,2020-02-23 18:48:37
546,Tahoua,14.89,5.27,89.6,6,0,18.34,NE,dust,0.0,0.0,2020-02-23 18:51:09
547,Omsukchan,62.53,155.8,-13.36,98,98,1.32,RU,overcast clouds,0.0,0.0,2020-02-23 18:51:09
548,Guarapari,-20.67,-40.5,78.8,69,90,17.22,BR,overcast clouds,0.0,0.0,2020-02-23 18:49:33
549,Yumen,40.28,97.2,32.5,40,84,21.41,CN,broken clouds,0.0,0.0,2020-02-23 18:41:55
550,Rio Bravo,25.98,-98.1,81.0,50,90,20.8,MX,overcast clouds,0.0,0.0,2020-02-23 18:51:10
551,Hazorasp,41.32,61.07,42.8,81,92,4.7,UZ,overcast clouds,0.0,0.0,2020-02-23 18:51:10
552,Helena,46.59,-112.04,35.6,55,1,3.36,US,clear sky,0.0,0.0,2020-02-23 18:50:36
553,Chacabuco,-34.64,-60.47,75.0,58,36,4.0,AR,scattered clouds,0.0,0.0,2020-02-23 18:51:11
554,Dhidhdhoo,6.88,73.1,82.22,77,43,9.75,MV,scattered clouds,0.0,0.0,2020-02-23 18:45:16
555,Manono,-7.3,27.42,73.58,94,100,3.58,CD,light rain,1.88,0.0,2020-02-23 18:51:11
556,Vestmannaeyjar,63.44,-20.27,33.8,63,75,34.45,IS,shower rain,0.0,0.0,2020-02-23 18:51:11
